[
  {
    "site_id": 228272,
    "site_name_short": "KANANOOK CREEK AT WELLS STREET FRANKSTON",
    "longitude": 145.12,
    "latitude": -38.1439,
    "date": "2020-04-01",
    "N_TOTAL": 450,
    "P_TOTAL": 88
  },
  {
    "site_id": 228273,
    "site_name_short": "MONBULK CREEK OFF KAROO ROAD",
    "longitude": 145.257,
    "latitude": -37.9038,
    "date": "2020-04-01",
    "N_TOTAL": 1750,
    "P_TOTAL": 175
  },
  {
    "site_id": 228274,
    "site_name_short": "PATTERSON RIVER AT NATIONAL WATER SPORTS CNTR BANGHOLME",
    "longitude": 145.146,
    "latitude": -38.0576,
    "date": "2020-03-01",
    "N_TOTAL": 940,
    "P_TOTAL": 100
  },
  {
    "site_id": 228275,
    "site_name_short": "KACKERABOITE CREEK UPSTREAM OLD MORNINGTON ROAD",
    "longitude": 145.1,
    "latitude": -38.1668,
    "date": "2020-04-01",
    "N_TOTAL": 830,
    "P_TOTAL": 34
  },
  {
    "site_id": 228278,
    "site_name_short": "LOWER GUM SCRUB CREEK AT WENN ROAD",
    "longitude": 145.447,
    "latitude": -38.1481,
    "date": "2020-04-01",
    "N_TOTAL": 1600,
    "P_TOTAL": 390
  },
  {
    "site_id": 228281,
    "site_name_short": "OLIVERS CREEK AT BAYVIEW ROAD",
    "longitude": 145.196,
    "latitude": -38.2885,
    "date": "2020-04-01",
    "N_TOTAL": 1010,
    "P_TOTAL": 119
  },
  {
    "site_id": 228282,
    "site_name_short": "SWEETWATER CREEK AT GRANGE ROAD",
    "longitude": 145.111,
    "latitude": -38.1599,
    "date": "2020-04-01",
    "N_TOTAL": 550,
    "P_TOTAL": 37
  },
  {
    "site_id": 228283,
    "site_name_short": "WYLIES DRAIN AT BAXTER-TOORADIN ROAD",
    "longitude": 145.338,
    "latitude": -38.1957,
    "date": "2018-05-01",
    "N_TOTAL": 2630,
    "P_TOTAL": 450
  },
  {
    "site_id": 228284,
    "site_name_short": "MCDONALDS DRAIN AT BALLARTO ROAD",
    "longitude": 145.503,
    "latitude": -38.1563,
    "date": "2020-03-01",
    "N_TOTAL": 1490,
    "P_TOTAL": 140
  },
  {
    "site_id": 228386,
    "site_name_short": "BALCOMBE CREEK AT NEPEAN HIGHWAY MOUNT MARTHA",
    "longitude": 145.037,
    "latitude": -38.2642,
    "date": "2020-04-01",
    "N_TOTAL": 1110,
    "P_TOTAL": 1300
  },
  {
    "site_id": 228388,
    "site_name_short": "EUMMEMERING CREEK AT WORSLEY ROAD BANGHOLME",
    "longitude": 145.18,
    "latitude": -38.0407,
    "date": "2020-04-01",
    "N_TOTAL": 1100,
    "P_TOTAL": 160
  },
  {
    "site_id": 228398,
    "site_name_short": "FERNY CREEK UPSTREAM MONBULK CREEK KNOXFIELD",
    "longitude": 145.252,
    "latitude": -37.9033,
    "date": "2020-04-01",
    "N_TOTAL": 1170,
    "P_TOTAL": 127
  },
  {
    "site_id": 228604,
    "site_name_short": "CROYDON MAIN DRAIN AT BANGALOOK ROAD WALKWAY WEST-EAST",
    "longitude": 145.259,
    "latitude": -37.8345,
    "date": "2020-04-01",
    "N_TOTAL": 1080,
    "P_TOTAL": 138
  },
  {
    "site_id": 229146,
    "site_name_short": "STRINGYBARK CREEK AT YARRA GLEN ROAD COLDSTREAM",
    "longitude": 145.383,
    "latitude": -37.6949,
    "date": "2020-05-01",
    "N_TOTAL": 1280,
    "P_TOTAL": 99
  },
  {
    "site_id": 229295,
    "site_name_short": "BRUCES CREEK AT BEECH STREET",
    "longitude": 145.123,
    "latitude": -37.5112,
    "date": "2020-05-01",
    "N_TOTAL": 1150,
    "P_TOTAL": 119
  },
  {
    "site_id": 229297,
    "site_name_short": "EDGARS CREEK AT MURRAY ROAD",
    "longitude": 144.976,
    "latitude": -37.7337,
    "date": "2020-04-01",
    "N_TOTAL": 550,
    "P_TOTAL": 90
  },
  {
    "site_id": 229416,
    "site_name_short": "OLINDA CREEK UPSTREAM HULL ROAD",
    "longitude": 145.361,
    "latitude": -37.7781,
    "date": "2020-04-01",
    "N_TOTAL": 130,
    "P_TOTAL": 23
  },
  {
    "site_id": 229417,
    "site_name_short": "SCOTCHMAN CREEK AT GOLFERS DRIVE",
    "longitude": 145.079,
    "latitude": -37.8761,
    "date": "2020-04-01",
    "N_TOTAL": 920,
    "P_TOTAL": 80
  },
  {
    "site_id": 229419,
    "site_name_short": "YARRA RIVER AT SPADONIS RESERVE COLDSTREAM",
    "longitude": 145.35,
    "latitude": -37.6811,
    "date": "2020-05-01",
    "N_TOTAL": 940,
    "P_TOTAL": 127
  },
  {
    "site_id": 229420,
    "site_name_short": "YARRA RIVER AT PRINCES BRIDGE",
    "longitude": 144.968,
    "latitude": -37.8192,
    "date": "2020-05-01",
    "N_TOTAL": 1070,
    "P_TOTAL": 138
  },
  {
    "site_id": 229601,
    "site_name_short": "DIAMOND CREEK AT MAIN ROAD ELTHAM",
    "longitude": 145.142,
    "latitude": -37.732,
    "date": "2015-02-01",
    "N_TOTAL": 730,
    "P_TOTAL": 76
  },
  {
    "site_id": 229671,
    "site_name_short": "WOORI YALLOCK CREEK UPSTREAM WARBURTON HIGHWAY",
    "longitude": 145.509,
    "latitude": -37.7768,
    "date": "2020-03-01",
    "N_TOTAL": 460,
    "P_TOTAL": 57
  },
  {
    "site_id": 230200,
    "site_name_short": "MARIBYRNONG RIVER @ KEILOR",
    "longitude": 144.8365,
    "latitude": -37.7277,
    "date": "1999-03-01",
    "N_TOTAL": 830,
    "P_TOTAL": 56
  },
  {
    "site_id": 230202,
    "site_name_short": "JACKSON CREEK @ SUNBURY",
    "longitude": 144.742,
    "latitude": -37.5832,
    "date": "2015-05-01",
    "N_TOTAL": 640,
    "P_TOTAL": 40
  },
  {
    "site_id": 230205,
    "site_name_short": "DEEP CREEK @ BULLA (D/S OF EMU CREEK JUNCT.)",
    "longitude": 144.801,
    "latitude": -37.6314,
    "date": "2024-06-01",
    "N_TOTAL": 600,
    "P_TOTAL": 22
  },
  {
    "site_id": 230242,
    "site_name_short": "JACKSONS CREEK @ U/S RIDDLES CREEK RWP OUTFALL",
    "longitude": 144.7132,
    "latitude": -37.4833,
    "date": "2020-03-01",
    "N_TOTAL": 410,
    "P_TOTAL": 24
  },
  {
    "site_id": 230244,
    "site_name_short": "TAYLORS CREEK AT WALKWAY DOWNSTREAM GREEN GULLY ROAD",
    "longitude": 144.826,
    "latitude": -37.727,
    "date": "2020-04-01",
    "N_TOTAL": 380,
    "P_TOTAL": 49
  },
  {
    "site_id": 230245,
    "site_name_short": "JACKSONS CREEK UPSTREAM SUNBURY-RIDDELLS ROAD",
    "longitude": 144.683,
    "latitude": -37.4926,
    "date": "2020-04-01",
    "N_TOTAL": 600,
    "P_TOTAL": 29
  },
  {
    "site_id": 231102,
    "site_name_short": "CHERRY DRAIN PIPELINE AT ALTONA",
    "longitude": 144.8206,
    "latitude": -37.8487,
    "date": "2020-04-01",
    "N_TOTAL": 690,
    "P_TOTAL": 280
  },
  {
    "site_id": 231204,
    "site_name_short": "WERRIBEE RIVER @ WERRIBEE DIVERSION WEIR",
    "longitude": 144.6456,
    "latitude": -37.8795,
    "date": "2024-06-01",
    "N_TOTAL": 1290,
    "P_TOTAL": 66
  }
]
